let livecam = {
"type": "FeatureCollection",
"name": "livecam",
"crs": { "type": "name", "properties": { "name": "urn:ogc:def:crs:EPSG::6668" } },

"features": [
{ "type": "Feature", "properties": { "NO": 1, "名称": "甲突川 岩崎橋(鹿児島市小野)", "URL": "http://www3.doboku-bousai.pref.kagoshima.jp/bousai/servlet/bousaiweb.servletBousaiContents?dk=15&style=itv_detail&it=0&nw=1&sv=3&sn=1", "緯度": 31.613523, "経度": 130.52881 }, "geometry": { "type": "Point", "coordinates": [ 130.52881, 31.613523 ] } },
{ "type": "Feature", "properties": { "NO": 2, "名称": "甲突川 宮山橋(鹿児島市郡山町)", "URL": "http://www3.doboku-bousai.pref.kagoshima.jp/bousai/servlet/bousaiweb.servletBousaiContents?dk=15&style=itv_detail&it=0&nw=1&sv=3&sn=2", "緯度": 31.687279, "経度": 130.46649 }, "geometry": { "type": "Point", "coordinates": [ 130.46649, 31.687279 ] } },
{ "type": "Feature", "properties": { "NO": 3, "名称": "新川 田上橋(鹿児島市田上)", "URL": "http://www3.doboku-bousai.pref.kagoshima.jp/bousai/servlet/bousaiweb.servletBousaiContents?dk=15&style=itv_detail&it=0&nw=1&sv=3&sn=3", "緯度": 31.57743, "経度": 130.528792 }, "geometry": { "type": "Point", "coordinates": [ 130.528792, 31.57743 ] } },
{ "type": "Feature", "properties": { "NO": 4, "名称": "稲荷川 一ッ橋(鹿児島市池之上町)", "URL": "http://www3.doboku-bousai.pref.kagoshima.jp/bousai/servlet/bousaiweb.servletBousaiContents?dk=15&style=itv_detail&it=0&nw=1&sv=3&sn=4", "緯度": 31.608894, "経度": 130.564619 }, "geometry": { "type": "Point", "coordinates": [ 130.564619, 31.608894 ] } },
{ "type": "Feature", "properties": { "NO": 5, "名称": "永田川 宮下橋(鹿児島市中山町)", "URL": "http://www3.doboku-bousai.pref.kagoshima.jp/bousai/servlet/bousaiweb.servletBousaiContents?dk=15&style=itv_detail&it=0&nw=1&sv=3&sn=5", "緯度": 31.546381, "経度": 130.499857 }, "geometry": { "type": "Point", "coordinates": [ 130.499857, 31.546381 ] } },
{ "type": "Feature", "properties": { "NO": 6, "名称": "木之下川 JR橋(鹿児島市谷山)", "URL": "http://www3.doboku-bousai.pref.kagoshima.jp/bousai/servlet/bousaiweb.servletBousaiContents?dk=15&style=itv_detail&it=0&nw=1&sv=3&sn=13", "緯度": 31.518313, "経度": 130.507395 }, "geometry": { "type": "Point", "coordinates": [ 130.507395, 31.518313 ] } },
{ "type": "Feature", "properties": { "NO": 7, "名称": "脇田川 広木橋(鹿児島市広木)", "URL": "http://www3.doboku-bousai.pref.kagoshima.jp/bousai/servlet/bousaiweb.servletBousaiContents?dk=15&style=itv_detail&it=0&nw=1&sv=3&sn=101", "緯度": 31.560157, "経度": 130.520343 }, "geometry": { "type": "Point", "coordinates": [ 130.520343, 31.560157 ] } },
{ "type": "Feature", "properties": { "NO": 8, "名称": "和田川 和田橋(鹿児島市和田)", "URL": "http://www3.doboku-bousai.pref.kagoshima.jp/bousai/servlet/bousaiweb.servletBousaiContents?dk=15&style=itv_detail&it=0&nw=1&sv=3&sn=102", "緯度": 31.510427, "経度": 130.510664 }, "geometry": { "type": "Point", "coordinates": [ 130.510664, 31.510427 ] } },
{ "type": "Feature", "properties": { "NO": 9, "名称": "思川 高崎橋(鹿児島市西佐多町)", "URL": "http://www3.doboku-bousai.pref.kagoshima.jp/bousai/servlet/bousaiweb.servletBousaiContents?dk=15&style=itv_detail&it=0&nw=1&sv=3&sn=103", "緯度": 31.737918, "経度": 130.565814 }, "geometry": { "type": "Point", "coordinates": [ 130.565814, 31.737918 ] } },
{ "type": "Feature", "properties": { "NO": 10, "名称": "神之川 荒瀬橋(日置市伊集院町)", "URL": "http://www3.doboku-bousai.pref.kagoshima.jp/bousai/servlet/bousaiweb.servletBousaiContents?dk=15&style=itv_detail&it=0&nw=1&sv=3&sn=9", "緯度": 31.63031, "経度": 130.393543 }, "geometry": { "type": "Point", "coordinates": [ 130.393543, 31.63031 ] } },
{ "type": "Feature", "properties": { "NO": 11, "名称": "五反田川 麓大橋(いちき串木野市上名)", "URL": "http://www3.doboku-bousai.pref.kagoshima.jp/bousai/servlet/bousaiweb.servletBousaiContents?dk=15&style=itv_detail&it=0&nw=1&sv=3&sn=104", "緯度": 31.726667, "経度": 130.279872 }, "geometry": { "type": "Point", "coordinates": [ 130.279872, 31.726667 ] } },
{ "type": "Feature", "properties": { "NO": 12, "名称": "万之瀬川 万之瀬橋(南さつま市加世田)", "URL": "http://www3.doboku-bousai.pref.kagoshima.jp/bousai/servlet/bousaiweb.servletBousaiContents?dk=15&style=itv_detail&it=0&nw=1&sv=3&sn=6", "緯度": 31.427655, "経度": 130.326147 }, "geometry": { "type": "Point", "coordinates": [ 130.326147, 31.427655 ] } },
{ "type": "Feature", "properties": { "NO": 13, "名称": "万之瀬川 大渡橋(南九州市川辺町)", "URL": "http://www3.doboku-bousai.pref.kagoshima.jp/bousai/servlet/bousaiweb.servletBousaiContents?dk=15&style=itv_detail&it=0&nw=1&sv=3&sn=8", "緯度": 31.380887, "経度": 130.380032 }, "geometry": { "type": "Point", "coordinates": [ 130.380032, 31.380887 ] } },
{ "type": "Feature", "properties": { "NO": 14, "名称": "加世田川 日新橋(南さつま市加世田)", "URL": "http://www3.doboku-bousai.pref.kagoshima.jp/bousai/servlet/bousaiweb.servletBousaiContents?dk=15&style=itv_detail&it=0&nw=1&sv=3&sn=7", "緯度": 31.408744, "経度": 130.31559 }, "geometry": { "type": "Point", "coordinates": [ 130.31559, 31.408744 ] } },
{ "type": "Feature", "properties": { "NO": 15, "名称": "花渡川 神浦橋(枕崎市桜山町)", "URL": "http://www3.doboku-bousai.pref.kagoshima.jp/bousai/servlet/bousaiweb.servletBousaiContents?dk=15&style=itv_detail&it=0&nw=1&sv=3&sn=14", "緯度": 31.2957, "経度": 130.283644 }, "geometry": { "type": "Point", "coordinates": [ 130.283644, 31.2957 ] } },
{ "type": "Feature", "properties": { "NO": 16, "名称": "二反田川 二月田橋(指宿市十町)", "URL": "http://www3.doboku-bousai.pref.kagoshima.jp/bousai/servlet/bousaiweb.servletBousaiContents?dk=15&style=itv_detail&it=0&nw=1&sv=3&sn=15", "緯度": 31.256405, "経度": 130.628764 }, "geometry": { "type": "Point", "coordinates": [ 130.628764, 31.256405 ] } },
{ "type": "Feature", "properties": { "NO": 17, "名称": "大浦川 磯間橋(南さつま市大浦町木連口)", "URL": "http://www3.doboku-bousai.pref.kagoshima.jp/bousai/servlet/bousaiweb.servletBousaiContents?dk=15&style=itv_detail_g&it=0&nw=1&sv=3&sn=106", "緯度": 31.374381, "経度": 130.228452 }, "geometry": { "type": "Point", "coordinates": [ 130.228452, 31.374381 ] } },
{ "type": "Feature", "properties": { "NO": 18, "名称": "平佐川 草原橋(薩摩川内市平佐町)", "URL": "http://www3.doboku-bousai.pref.kagoshima.jp/bousai/servlet/bousaiweb.servletBousaiContents?dk=15&style=itv_detail&it=0&nw=1&sv=3&sn=10", "緯度": 31.808159, "経度": 130.324001 }, "geometry": { "type": "Point", "coordinates": [ 130.324001, 31.808159 ] } },
{ "type": "Feature", "properties": { "NO": 19, "名称": "隈之城川 佛生橋(薩摩川内市勝目町)", "URL": "http://www3.doboku-bousai.pref.kagoshima.jp/bousai/servlet/bousaiweb.servletBousaiContents?dk=15&style=itv_detail&it=0&nw=1&sv=3&sn=105", "緯度": 31.794358, "経度": 130.315092 }, "geometry": { "type": "Point", "coordinates": [ 130.315092, 31.794358 ] } },
{ "type": "Feature", "properties": { "NO": 20, "名称": "米之津川 春日橋(出水市昭和町)", "URL": "http://www3.doboku-bousai.pref.kagoshima.jp/bousai/servlet/bousaiweb.servletBousaiContents?dk=15&style=itv_detail&it=0&nw=1&sv=3&sn=11", "緯度": 32.086539, "経度": 130.353421 }, "geometry": { "type": "Point", "coordinates": [ 130.353421, 32.086539 ] } },
{ "type": "Feature", "properties": { "NO": 21, "名称": "別府川 友徳橋(姶良市蒲生町)", "URL": "http://www3.doboku-bousai.pref.kagoshima.jp/bousai/servlet/bousaiweb.servletBousaiContents?dk=15&style=itv_detail&it=0&nw=1&sv=3&sn=18", "緯度": 31.760772, "経度": 130.584252 }, "geometry": { "type": "Point", "coordinates": [ 130.584252, 31.760772 ] } },
{ "type": "Feature", "properties": { "NO": 22, "名称": "天降川 日当山橋(霧島市隼人町)", "URL": "http://www3.doboku-bousai.pref.kagoshima.jp/bousai/servlet/bousaiweb.servletBousaiContents?dk=15&style=itv_detail&it=0&nw=1&sv=3&sn=12", "緯度": 31.770456, "経度": 130.753321 }, "geometry": { "type": "Point", "coordinates": [ 130.753321, 31.770456 ] } },
{ "type": "Feature", "properties": { "NO": 23, "名称": "天降川 天降川橋(霧島市隼人町見次)", "URL": "http://www3.doboku-bousai.pref.kagoshima.jp/bousai/servlet/bousaiweb.servletBousaiContents?dk=15&style=itv_detail_g&it=0&nw=1&sv=3&sn=107", "緯度": 31.743406, "経度": 130.748348 }, "geometry": { "type": "Point", "coordinates": [ 130.748348, 31.743406 ] } },
{ "type": "Feature", "properties": { "NO": 24, "名称": "網掛川 竹下橋(姶良市加治木町反土)", "URL": "http://www3.doboku-bousai.pref.kagoshima.jp/bousai/servlet/bousaiweb.servletBousaiContents?dk=15&style=itv_detail&it=0&nw=1&sv=3&sn=108", "緯度": 31.742755, "経度": 130.657356 }, "geometry": { "type": "Point", "coordinates": [ 130.657356, 31.742755 ] } },
{ "type": "Feature", "properties": { "NO": 25, "名称": "手籠川 鏡橋(霧島市国分向花町)", "URL": "http://www3.doboku-bousai.pref.kagoshima.jp/bousai/servlet/bousaiweb.servletBousaiContents?dk=15&style=itv_detail&it=0&nw=1&sv=3&sn=109", "緯度": 31.749193, "経度": 130.763497 }, "geometry": { "type": "Point", "coordinates": [ 130.763497, 31.749193 ] } },
{ "type": "Feature", "properties": { "NO": 26, "名称": "本城川 今川原橋(垂水市高城)", "URL": "http://www3.doboku-bousai.pref.kagoshima.jp/bousai/servlet/bousaiweb.servletBousaiContents?dk=15&style=itv_detail&it=0&nw=1&sv=3&sn=16", "緯度": 31.478939, "経度": 130.727204 }, "geometry": { "type": "Point", "coordinates": [ 130.727204, 31.478939 ] } },
{ "type": "Feature", "properties": { "NO": 27, "名称": "雄川 北之口橋(南大隅町根占川南)", "URL": "http://www3.doboku-bousai.pref.kagoshima.jp/bousai/servlet/bousaiweb.servletBousaiContents?dk=15&style=itv_detail&it=0&nw=1&sv=3&sn=17", "緯度": 31.218141, "経度": 130.790341 }, "geometry": { "type": "Point", "coordinates": [ 130.790341, 31.218141 ] } },
{ "type": "Feature", "properties": { "NO": 28, "名称": "神ノ川 神之川・水流川合流点付近(錦江町神川川崎)", "URL": "http://www3.doboku-bousai.pref.kagoshima.jp/bousai/servlet/bousaiweb.servletBousaiContents?dk=15&style=itv_detail&it=0&nw=1&sv=3&sn=110", "緯度": 31.271394, "経度": 130.799654 }, "geometry": { "type": "Point", "coordinates": [ 130.799654, 31.271394 ] } },
{ "type": "Feature", "properties": { "NO": 29, "名称": "菱田川 菱田橋(志布志市有明町野井倉)", "URL": "http://www3.doboku-bousai.pref.kagoshima.jp/bousai/servlet/bousaiweb.servletBousaiContents?dk=15&style=itv_detail_g&it=0&nw=1&sv=3&sn=111", "緯度": 31.447888, "経度": 131.052351 }, "geometry": { "type": "Point", "coordinates": [ 131.052351, 31.447888 ] } },
{ "type": "Feature", "properties": { "NO": 30, "名称": "前川 石踊橋(志布志市志布志町帖)", "URL": "http://www3.doboku-bousai.pref.kagoshima.jp/bousai/servlet/bousaiweb.servletBousaiContents?dk=15&style=itv_detail&it=0&nw=1&sv=3&sn=112", "緯度": 31.488861, "経度": 131.115187 }, "geometry": { "type": "Point", "coordinates": [ 131.115187, 31.488861 ] } },
{ "type": "Feature", "properties": { "NO": 31, "名称": "甲女川 榕城橋(西之表市甲女町)", "URL": "http://www3.doboku-bousai.pref.kagoshima.jp/bousai/servlet/bousaiweb.servletBousaiContents?dk=15&style=itv_detail_g&it=0&nw=1&sv=3&sn=113", "緯度": 30.706356, "経度": 131.011035 }, "geometry": { "type": "Point", "coordinates": [ 131.011035, 30.706356 ] } },
{ "type": "Feature", "properties": { "NO": 32, "名称": "安房川 安房川橋(屋久島町安房)", "URL": "http://www3.doboku-bousai.pref.kagoshima.jp/bousai/servlet/bousaiweb.servletBousaiContents?dk=15&style=itv_detail_g&it=0&nw=1&sv=3&sn=114", "緯度": 30.312907, "経度": 130.655083 }, "geometry": { "type": "Point", "coordinates": [ 130.655083, 30.312907 ] } },
{ "type": "Feature", "properties": { "NO": 33, "名称": "新川 平田中央橋(奄美市名瀬平田町)", "URL": "http://www3.doboku-bousai.pref.kagoshima.jp/bousai/servlet/bousaiweb.servletBousaiContents?dk=15&style=itv_detail&it=0&nw=1&sv=3&sn=115", "緯度": 28.361053, "経度": 129.499863 }, "geometry": { "type": "Point", "coordinates": [ 129.499863, 28.361053 ] } },
{ "type": "Feature", "properties": { "NO": 34, "名称": "大瀬川 第３大瀬橋(徳之島町亀津)", "URL": "http://www3.doboku-bousai.pref.kagoshima.jp/bousai/servlet/bousaiweb.servletBousaiContents?dk=15&style=itv_detail_g&it=0&nw=1&sv=3&sn=116", "緯度": 27.732261, "経度": 129.014171 }, "geometry": { "type": "Point", "coordinates": [ 129.014171, 27.732261 ] } },
{ "type": "Feature", "properties": { "NO": 35, "名称": "余多川 天竜橋(知名町余多)", "URL": "http://www3.doboku-bousai.pref.kagoshima.jp/bousai/servlet/bousaiweb.servletBousaiContents?dk=15&style=itv_detail_g&it=0&nw=1&sv=3&sn=117", "緯度": 27.36266, "経度": 128.611363 }, "geometry": { "type": "Point", "coordinates": [ 128.611363, 27.36266 ] } }
]
}
